[{"Status":"0","Type":"10","City":"无锡市","Area":"江阴市","Name":"光大水务（江阴）有限公司滨江污水处理厂","EPCode":"320281400009494","HJ212MN":"320281400009494888889101","ADCode":"320281","USCCode":"","NEICode":"国民经济行业编码","NEIName":"污水处理及其再生利用","Industry":"污水处理","Corporate":"","Address":"","Latitude":"120.011788","Longitude":"31.931494","Remark":"光大水务（江阴）有限公司滨江污水处理厂，坐落于江苏无锡市，设计处理能力为日处理污水3.00万立方米。主要建设内容包括厂区土建施工，工艺设备、工艺管道安装，电气、自控系统安装，照明，防雷接地，采暖，通风，厂区道路施工及绿化等。自2001年9月正式投入运行以来，污水处理设备运转良好，日平均处理污水量为3.03 万立方米。该项目采用先进的污水处理设备，厂区主体工艺采用A/O处理工艺"},{"Status":"0","Type":"10","City":"无锡市","Area":"宜兴市","Name":"宜兴市城市污水处理厂","EPCode":"320282765865","HJ212MN":"320282000418615888889101","ADCode":"320282","USCCode":"91320282673007063A","NEICode":"国民经济行业编码","NEIName":"酒、饮料及精制茶制造业","Industry":"","Corporate":"林唯福","Address":"江苏省无锡市宜兴市长青路","Latitude":"119.870710","Longitude":"31.420849","Remark":"宜兴建兴环境投资有限公司办公室地址位于太湖明珠，鱼米之乡无锡，于2015年09月28日在宜兴市市场监督管理局注册成立，宜兴市城市污水处理厂于2016年建设，采用较为先进的污水处理工艺MBR， 其设计规模为7.5万立方米/日， 先期日处理规模达到7.5万立方米/日，一期工程建设地点位于宜兴市开发区内， 建设规模为一期工程规模为7.5万吨/天。"},{"Status":"0","Type":"10","City":"无锡市","Area":"梁溪区","Name":"无锡市城北污水处理厂","EPCode":"3202020200000117","HJ212MN":"320202020000011788889101","ADCode":"320213","USCCode":"91320200135907734U001","NEICode":"国民经济行业编码","NEIName":"污水处理及其再生利用","Industry":"污水处理","Corporate":"叶亮","Address":"无锡市广瑞路","Latitude":"120.390300","Longitude":"31.656900","Remark":"无锡市城北污水处理厂位于无锡市城区的东北部，厂区占地面积150.2亩，建设规模为日处理污水10万吨，其中已完成一期工程建设规模日处理污水5万吨。主要收集处理无锡市区城北的山北、周山浜片区共66平方公里内的污水，受益人口68万人。"},{"Status":"0","Type":"10","City":"无锡市","Area":"惠山区","Name":"无锡惠山水处理有限公司","EPCode":"320200800029","HJ212MN":"320200800029888888889101","ADCode":"320206","USCCode":"91320206747322892N","NEICode":"国民经济行业编码","NEIName":"污水处理及其再生利用","Industry":"污水处理","Corporate":"吴振宇","Address":"无锡市惠山开发区胡家渡","Latitude":"120.284545","Longitude":"31.666490","Remark":"无锡惠山水处理有限公司，坐落于江苏无锡市，厂区具体位于无锡市惠山开发区胡家渡，设计处理能力为日处理污水5.00万立方米。主要建设内容包括厂区土建施工，工艺设备、工艺管道安装，电气、自控系统安装，照明，防雷接地，采暖，通风，厂区道路施工及绿化等。无锡惠山水处理有限公司自2006年9月正式投入运行以来，污水处理设备运转良好，日平均处理污水量为3.96 万立方米。"},{"Status":"0","Type":"30","City":"无锡市","Area":"新吴区","Name":"无锡友联热电股份有限公司","EPCode":"320200000006","HJ212MN":"320200000006888888889201","ADCode":"320214","USCCode":"913200007178697827","NEICode":"国民经济行业编码","NEIName":"火力发电","Industry":"电力","Corporate":"杨春","Address":"新区梅村","Latitude":"120.463985","Longitude":"31.528417","Remark":"无锡友联热电股份有限公司作为热电联产企业，采用环保型循环流化床锅炉，具备石灰石/石膏脱硫和SCR尿素脱硝功能，采用布袋除尘设备，机组采用DCS系统控制，自动化程度高。总装机容量5.5万千瓦，配备2台100吨/时锅炉和2台15兆瓦汽轮发电机，2台150吨/时锅炉和1台25兆瓦汽轮发电，年供汽能力200万吨。"},{"Status":"1","Type":"20","City":"无锡市","Area":"锡山区","Name":"无锡锡东环保能源有限公司","EPCode":"3202050200008130","HJ212MN":"320205020000813088889301","ADCode":"320205106000","USCCode":"91320205684910709J","NEICode":"国民经济行业编码","NEIName":"生物质能发电","Industry":"电力","Corporate":"许启明","Address":"黄土塘","Latitude":"120.469550","Longitude":"31.707738","Remark":"采用了国际上最先进的欧盟2010标准、最严格的烟气处理工艺，具体工艺为焚烧炉+半干反应塔+活性炭、消石灰+布袋除尘器+SCR+湿法脱酸，实现了“最高标准、最好设备、最优工艺”的目标要求。无锡锡东环保能源有限公司已成为生活垃圾焚烧发电行业的标杆企业，是目前国内最先进的生活垃圾焚烧发电项目之一，总体达国际同类项目领先水平。焚烧炉+半干反应塔+活性炭、消石灰+布袋除尘器+SCR+湿法脱酸"},{"Status":"0","Type":"10","City":"徐州市","Area":"泉山区","Name":"徐州国祯水务运营有限公司","EPCode":"320300100101","HJ212MN":"320300100101888888889101","ADCode":"320311","USCCode":"913203007573337128","NEICode":"国民经济行业编码","NEIName":"污水处理及其再生利用","Industry":"污水处理","Corporate":"佟廷军","Address":"徐州市泉山区南郊姚庄村","Latitude":"117.212527","Longitude":"34.211679","Remark":""},{"Status":"0","Type":"10","City":"徐州市","Area":"云龙区","Name":"徐州建邦环境水水务有限公司（新城区）","EPCode":"320300102410","HJ212MN":"320300102410888888889101","ADCode":"320303","USCCode":"913203015617799824","NEICode":"国民经济行业编码","NEIName":"污水处理及其再生利用","Industry":"污水处理","Corporate":"张顺成","Address":"徐州市新城区潘塘镇冯庄沿珠江路向西1000米","Latitude":"117.275990","Longitude":"34.171710","Remark":""},{"Status":"1","Type":"10","City":"徐州市","Area":"铜山区","Name":"铜山区新城污水处理厂","EPCode":"3203120200004977","HJ212MN":"320312020000497788889101","ADCode":"320312","USCCode":"91320312559269764M","NEICode":"国民经济行业编码","NEIName":"污水处理及其再生利用","Industry":"污水处理","Corporate":"柳振发","Address":"铜山新区牛山路21号","Latitude":"117.182467","Longitude":"34.176993","Remark":"铜山区新城污水处理厂于2011年建设，江苏铜山区新城污水处理厂采用较为先进的污水处理工艺， 其设计规模为2万立方米/日， 先期日处理规模达到2万立方米/日， 处理工艺：“A2/O活性污泥法+过滤消毒污水处理工艺”。设计内容是外排水由原来《城镇污水处理厂污染物排放标准》（GB18918—2002）一级B提高到一级A标准。"},{"Status":"0","Type":"10","City":"徐州市","Area":"铜山区","Name":"徐州建邦环境水水务有限公司（铜山龙亭）","EPCode":"3203120203503080","HJ212MN":"320312020350308088889501","ADCode":"320312","USCCode":"913203015617799824","NEICode":"国民经济行业编码","NEIName":"酒、饮料及精制茶制造业","Industry":"","Corporate":"宗海荣","Address":"徐州市铜山区三堡镇","Latitude":"117.209141","Longitude":"34.116174","Remark":""},{"Status":"0","Type":"30","City":"徐州市","Area":"铜山区","Name":"铜山华润电力有限公司","EPCode":"320300000089","HJ212MN":"320300000089888888889201","ADCode":"320312","USCCode":"9132031279905990XA","NEICode":"国民经济行业编码","NEIName":"火力发电","Industry":"电力","Corporate":"李义","Address":"徐州市华润路1号(柳新镇口上村)","Latitude":"117.178864","Longitude":"34.374352","Remark":"铜山华润电力有限公司采用石灰石/石膏脱硫和SCR尿素脱硝设施，采用电除尘设备，机组采用DCS系统控制，自动化程度高。公司总规划装机容量3200MW，一期工程建设2×300MW机组，二期工程2×300MW机组，三期工程两台1000MW机组，2019年发电量达100.17亿千瓦时。"},{"Status":"1","Type":"20","City":"徐州市","Area":"云龙区","Name":"徐州协鑫能源环保有限公司","EPCode":"3203000200735389","HJ212MN":"320300020073538988889301","ADCode":"320391","USCCode":"91320301680541723Q","NEICode":"国民经济行业编码","NEIName":"生物质能发电","Industry":"","Corporate":"王永生","Address":"徐州经济技术开发区荆山路66号","Latitude":"117.303399","Longitude":"34.301335","Remark":"于2008年10月09日在徐州经济技术开发区市场监督管理局注册成立，属于徐州环保公司行业垃圾焚烧发电及蒸汽生产、销售；自产副产品灰渣销售；提供技术服务、技术咨询；污水处理及其再生利用.规模: 1500t/d，使用技术: 机械炉排炉；烟气净化技术: 急冷塔+改良干法+布袋除尘器。"},{"Status":"1","Type":"10","City":"常州市","Area":"金坛区","Name":"常州市金坛区第二污水处理有限公司","EPCode":"320482000003","HJ212MN":"320482000003888888889101","ADCode":"320413400000","USCCode":"913204137424613911","NEICode":"国民经济行业编码","NEIName":"污水处理及其再生利用","Industry":"污水处理","Corporate":"储云颂","Address":"常州市金坛区良常东路9号","Latitude":"119.600858","Longitude":"31.761864","Remark":"常州金坛区第二污水处理有限公司办公室地址位于长江文明和吴文化的发源地的常州，公司主要经营市政污水处理、工业污水处理、污水处理厂的经营和管理、污水处理相关技术服务。该项目采用先进的污水处理设备，厂区主体工艺采用A2/O处理工艺。"},{"Status":"1","Type":"10","City":"常州市","Area":"溧阳市","Name":"溧阳水务集团有限公司第二污水处理厂","EPCode":"320481000082","HJ212MN":"320481000082888888889101","ADCode":"320481100000","USCCode":"91320481550268845G","NEICode":"国民经济行业编码","NEIName":"污水处理及其再生利用","Industry":"污水处理","Corporate":"潘震飞","Address":"溧城镇正昌路166号","Latitude":"119.476834","Longitude":"31.449200","Remark":"溧阳水务集团有限公司第二污水处理厂，总规模为9.8万吨/天，分两期建设，一期设计规模为5万吨/日，投资为1.31091亿元，2013年10月，公司投资1.7亿元在污水厂北侧开始建设扩建二期项目，设计规模为日处理污水48万吨。本厂采用改良AAO工艺，排放标准为国家一级A排放。"},{"Status":"1","Type":"30","City":"常州市","Area":"新北区","Name":"国电常州发电有限公司","EPCode":"320400001010","HJ212MN":"320400001010888888889201","ADCode":"320411100000","USCCode":"913204007520003022","NEICode":"国民经济行业编码","NEIName":"火力发电","Industry":"电力","Corporate":"张苏闽","Address":"常州市新北区春江镇江花路","Latitude":"119.989327","Longitude":"31.956556","Remark":"国电常州发电有限公司采用石灰石/石膏脱硫和SCR尿素脱硝设施，采用电除尘设备，机组采用DCS系统控制，自动化程度高。公司现装机容量为2×630MW机组，2006年正式投产发电，2019年发电量达58.9亿千瓦时。"},{"Status":"1","Type":"20","City":"常州市","Area":"武进区","Name":"光大环保能源（常州）有限公司","EPCode":"3204120200017595","HJ212MN":"320412020001759588889301","ADCode":"320412","USCCode":"91320412791967866P","NEICode":"国民经济行业编码","NEIName":"生物质能发电","Industry":"电力","Corporate":"蔡曙光","Address":"武进区遥观镇剑湖村委观庄村208号","Latitude":"120.051246","Longitude":"31.721758","Remark":"成立于2011年5月，一期项目总投资13350万元，占地面积3.32公顷（49.92亩），二期扩建项目总投资12000万元，规划占地面积为42.17亩。采用“半干反应塔+活性炭、石灰干粉+布袋除尘器+SCR+湿式脱酸”的烟气处理工艺。焚烧处理城市生活垃圾，销售所产生的电力、沼气、蒸汽、热水；研究开发垃圾处理技术，提供相关技术咨询和技术服务。"},{"Status":"1","Type":"20","City":"常州市","Area":"新北区","Name":"光大高新环保新能源（常州）有限公司","EPCode":"3204110200006191","HJ212MN":"320407400000806888889301","ADCode":"","USCCode":"","NEICode":"","NEIName":"生物质能发电","Industry":"电力","Corporate":"","Address":"江苏常州滨江经济开发区港区南路10号","Latitude":"","Longitude":"","Remark":"光大高新环保能源（常州）有限公司坐落在常州市新北区春江镇，是以处理城市生活垃圾、改善城市环境为目的的环保项目，采用BOT模式，建设运营期为30年，项目总规模为日处理生活垃圾1500吨，占地面积82.6亩，分两期建设，一期建设规模为日处理生活垃圾800吨，年处理生活垃圾29.5万吨；二期再扩建700吨/日。"},{"Status":"1","Type":"10","City":"常州市","Area":"新北区","Name":"常州市深水江边污水处理厂","EPCode":"320400010005","HJ212MN":"320407000102486888889101","ADCode":"","USCCode":"","NEICode":"","NEIName":"污水处理及其再生利用","Industry":"","Corporate":"","Address":"常州市新北区长江北路1201号","Latitude":"119.985904","Longitude":"31.950996","Remark":"深水常州江边污水处理厂，坐落于江苏常州市，设计处理能力为日处理污水20.00万立方米。深水常州江边污水处理厂自2005年1月正式投入运行以来，污水处理设备运转良好，日平均处理污水量为19.24 万立方米。该项目采用先进的污水处理设备，厂区主体工艺采用A2/O处理工艺。"},{"Status":"0","Type":"10","City":"苏州市","Area":"张家港市","Name":"张家港胜科水务","EPCode":"320582004968","HJ212MN":"320582004968888888889101","ADCode":"320582","USCCode":"913205927780305697","NEICode":"D4620","NEIName":"污水处理及其再生利用","Industry":"污水处理","Corporate":"陈剑钢","Address":"江苏省张家港保税区深圳路1号","Latitude":"120.462961","Longitude":"31.992394","Remark":""},{"Status":"0","Type":"10","City":"苏州市","Area":"常熟市","Name":"常熟市江南水务有限公司（周行污水处理厂）","EPCode":"3205810200027952","HJ212MN":"320581020002795288889501","ADCode":"320581","USCCode":"91320581691345592P","NEICode":"C15","NEIName":"酒、饮料及精制茶制造业","Industry":"","Corporate":"顾洪良","Address":"常熟市海虞镇香桥村","Latitude":"120.824195","Longitude":"31.703178","Remark":""},{"Status":"0","Type":"10","City":"苏州市","Area":"相城区","Name":"苏州市相城水务发展有限公司城西污水处理厂","EPCode":"3205070200004345","HJ212MN":"320507020000434588889101","ADCode":"320507","USCCode":"913205077786868836","NEICode":"D4620","NEIName":"污水处理及其再生利用","Industry":"污水处理","Corporate":"葛志兴","Address":"相城区黄桥街道永方路61号","Latitude":"120.340000","Longitude":"31.240000","Remark":""},{"Status":"0","Type":"10","City":"苏州市","Area":"高新区","Name":"苏州高新污水处理有限公司(第二污水厂)","EPCode":"3205910200002406","HJ212MN":"320591020000240688889101","ADCode":"320505003000","USCCode":"91320505746235949J","NEICode":"D4620","NEIName":"污水处理及其再生利用","Industry":"污水处理","Corporate":"贺明","Address":"苏州高新区枫桥新元街1号","Latitude":"120.574382","Longitude":"31.285786","Remark":""},{"Status":"0","Type":"30","City":"苏州市","Area":"太仓市","Name":"国华太仓发电有限公司","EPCode":"320585000377","HJ212MN":"320585000377888888889201","ADCode":"320585","USCCode":"9132058577051178XH","NEICode":"D4411","NEIName":"火力发电","Industry":"电力","Corporate":"许定峰","Address":"江苏省太仓市港口开发区滨海路28号","Latitude":"121.252944","Longitude":"31.582252","Remark":"国华太仓发电有限公司采用石灰石/石膏脱硫和SCR尿素脱硝设施，采用电除尘设备，机组采用DCS系统控制，自动化程度高。公司装机两台国产首批630MW超临界机组构成，分别于2005年和2006年投产发电。2019年发电量达70.83亿千瓦时。"},{"Status":"0","Type":"20","City":"苏州市","Area":"吴中区","Name":"光大环保能源（苏州）有限公司","EPCode":"3205000201119683","HJ212MN":"320500020111968388889301","ADCode":"320500","USCCode":"91320500754632629H","NEICode":"O8190","NEIName":"","Industry":"","Corporate":"胡延国","Address":"江苏省苏州市吴中区木渎镇七子村南侧","Latitude":"120.324725","Longitude":"31.144248","Remark":"光大环保能源（苏州）有限公司日处理规模为3550吨，年焚烧生活垃圾150万吨，上网电量4亿度，采用先进的焚烧炉排、烟气净化自动化控制，均有光大自主研发并生产。烟气净化系统采用“SNCR脱硝+（半干法+干法）脱酸+活性炭喷射+布袋除尘器”的先进烟气处理工艺。"},{"Status":"0","Type":"10","City":"南通市","Area":"如东县","Name":"如东深水环境科技有限公司","EPCode":"320623000096","HJ212MN":"320623000096888888889101","ADCode":"320623","USCCode":"91320623MA1MXEY46F","NEICode":"D4620","NEIName":"污水处理及其再生利用","Industry":"污水处理","Corporate":"王兴贵","Address":"江苏如东洋口化工园区黄海五路","Latitude":"121.050786","Longitude":"32.547204","Remark":"如东深水环境科技有限公司（以下简称“如东深水”）由江苏省如东沿海经济开发区管理委员会与深圳市水务集团（以下简称“深水集团”）联合出资成立，主要接纳处理洋口经济开发区内的企业废水。如东深水目前合计投资2.45亿元负责建设运营园区污水处理厂二期及二期提标工程（2万吨/天），由江苏省环科院环境科技有限公司设计，尾水排放达到《城镇污水处理厂污染物排放标准》（GB18918-2002）一级A标准。"},{"Status":"0","Type":"10","City":"南通市","Area":"如皋市","Name":"如皋市富港水处理有限公司","EPCode":"320682000087","HJ212MN":"320682000087888888889101","ADCode":"320682","USCCode":"913206827820832682","NEICode":"D4620","NEIName":"污水处理及其再生利用","Industry":"污水处理","Corporate":"邹建斌","Address":"如皋港经济开发区","Latitude":"120.581839","Longitude":"32.073688","Remark":""},{"Status":"0","Type":"10","City":"南通市","Area":"崇川区","Name":"南通市经济技术开发区通盛排水有限公司","EPCode":"320600000033","HJ212MN":"320600000033888888889101","ADCode":"320671","USCCode":"91320691765868012P","NEICode":"D4620","NEIName":"污水处理及其再生利用","Industry":"污水处理","Corporate":"熊烈","Address":"南通市经济技术开发区港口工业三区江河路28号","Latitude":"120.945803","Longitude":"31.838349","Remark":""},{"Status":"0","Type":"10","City":"南通市","Area":"海门市","Name":"中信环境水务（海门）有限公司","EPCode":"320684000125","HJ212MN":"320684000125888888889101","ADCode":"320684","USCCode":"91320684322248906T","NEICode":"D4620","NEIName":"污水处理及其再生利用","Industry":"污水处理","Corporate":"黄成","Address":"海门市灵甸港","Latitude":"121.420195","Longitude":"31.847587","Remark":"中信环境水务（海门）有限公司于2015年6月开始新建，注册资金1500万美元，总投资2500万美元，设计日处理能力2 万吨，项目地址位于原灵甸污水厂两侧，占地约32000平方米， 污水厂于2016年10月竣工验收， 2017年1月正式投入使用。项目为园区配套设施，接纳处理园区内医药、染料、农药、酒精制木薯废水以及区外印染企业的废水，2019年开始还将接纳临江新区及周边三个乡镇的生活废水，其中设计规模为化工废水8000吨/天，印染废水7000吨/天，生活废水5000吨/天"},{"Status":"0","Type":"30","City":"南通市","Area":"港闸区","Name":"江苏南通发电有限公司","EPCode":"320601000001","HJ212MN":"320601000001888888889201","ADCode":"320611","USCCode":"9132060057815804XQ","NEICode":"D4411","NEIName":"火力发电","Industry":"电力","Corporate":"费智","Address":"江苏省南通市港闸区天生港镇芦泾路1号","Latitude":"120.757089","Longitude":"32.028988","Remark":"江苏南通发电有限公司采用石灰石/石膏脱硫和SCR尿素脱硝设施，采用电除尘设备，机组采用DCS系统控制，自动化程度高。公司装机2×1000MW超超临界机组。2019年发电量达92.11亿千瓦时。"},{"Status":"0","Type":"20","City":"南通市","Area":"海安市","Name":"海安天楹环保能源有限公司","EPCode":"3206210200004834","HJ212MN":"320621020000483488889301","ADCode":"320621","USCCode":"91320621684129795D","NEICode":"D4417","NEIName":"生物质能发电","Industry":"电力","Corporate":"严圣军","Address":"海安县海安镇达欣路28号","Latitude":"120.404761","Longitude":"32.515144","Remark":"海安天楹环保能源有限公司负责垃圾焚烧发电及蒸汽生产（涉及许可的取得专项许可后方可经营）；炉渣及制品销售；餐厨废弃物收集、运输及无害化处置。自成立以来发展迅速，业务不断发展壮大，始终坚持用户至上，秉承“保证一流质量，保持一级荣誉”的经营理念。"},{"Status":"1","Type":"10","City":"淮安市","Area":"淮安区","Name":"淮安明通环保工程有限公司","EPCode":"320803000058","HJ212MN":"320803000058888888889101","ADCode":"320803116000","USCCode":"91320803781279509F","NEICode":"D4620","NEIName":"污水处理及其再生利用","Industry":"污水处理","Corporate":"徐春明","Address":"淮安区山阳大道66号","Latitude":"119.231692","Longitude":"33.563607","Remark":"淮安明通污水处理厂于2018年建设，江苏淮安明通污水处理厂采用较为先进的“DN生物滤池+CN曝气生物滤池+滤布滤池+消毒”的处理工艺，其设计规模为0.5万立方米/日，先期日处理规模达到0.5万立方米/日，项目投资近980万元。污水处理厂尾水执行《城镇污水处理厂污染物排放标准》（GB18918-2002）中一级A标准。"},{"Status":"1","Type":"20","City":"淮安市","Area":"淮安区","Name":"江苏国信生物质发电有限公司","EPCode":"3208030200001903","HJ212MN":"320803020000190388889401","ADCode":"320803","USCCode":"91320803792331886H","NEICode":"D4419","NEIName":"其他电力生产","Industry":"","Corporate":"王忠兵","Address":"淮安市淮安区工业园区纬二路与经十八路交界","Latitude":"119.204397","Longitude":"33.555222","Remark":"建设规模为2×15MW秸秆发电机组，预计总投资资金约2.8亿元，2台机组于2008年底投产。项目投入商业运营后，燃料以棉秆为主、其他硬质秸秆为辅，不再消耗煤炭资源，年秸秆耗量约22万吨；机组投产后，预计年利用6000小时，年发电量1.8亿kwh，年消耗秸秆量为22万吨，年上网电量1.62亿kwh，年产值约1亿元。"},{"Status":"1","Type":"20","City":"淮安市","Area":"淮阴区","Name":"光大城乡再生能源（淮安）有限公司","EPCode":"3208040204000050","HJ212MN":"320804020400005088889401","ADCode":"320804","USCCode":"91320800MA1N09X390","NEICode":"D44","NEIName":"电力、热力生产和供应业","Industry":"电力","Corporate":"赵永利","Address":"淮安市淮阴区淮河东路707号","Latitude":"119.147313","Longitude":"33.653258","Remark":"建设规模为:日处理生活垃圾能力1000吨/日，远期1500吨/日，配备2台500吨/台的机械炉排垃圾焚烧炉+1台25兆瓦纯凝式汽轮发电机组，采用“SNCR炉内脱硝+半干法脱酸+干法喷射+活性炭吸附+布袋除尘器”烟气净化装置。年处理生活垃圾36.5万吨。年发电量14404.8万度，年上网电量11970万度。"},{"Status":"0","Type":"10","City":"淮安市","Area":"涟水县","Name":"涟水县深港产学研环保工程科技有限公司","EPCode":"320826000050","HJ212MN":"320826000050888888889101","ADCode":"320826412000","USCCode":"913208266763770787","NEICode":"D4620","NEIName":"污水处理及其再生利用","Industry":"污水处理","Corporate":"沈超","Address":"涟水经济开发区西区祁六路","Latitude":"119.230473","Longitude":"33.783314","Remark":"涟水县深港产学研环保工程技术有限公司办公室地址位于淮安涟水县经济开发区，于2008年06月05日在涟水县市场监督管理局注册成立，公司主要经营环境科学咨询；环保技术开发（不含限制项目）；生活污水和工业废水处理（取得环保局技术资格认证书后方可开业）等，采用AAO工艺。"},{"Status":"1","Type":"10","City":"淮安市","Area":"淮安区","Name":"淮安同方盐化工业污水处理有限公司","EPCode":"3208010201000084","HJ212MN":"320801020100008488889101","ADCode":"320801","USCCode":"91320800MA1UUJE438","NEICode":"D462","NEIName":"污水处理及其再生利用","Industry":"","Corporate":"胡光","Address":"江苏省淮安市淮安区盐北大道","Latitude":"119.042972","Longitude":"33.414090","Remark":"淮安同方水务有限公司成立于2004年12月，承建市政自来水、污水、工业废水、中水回用等项目。目前，公司投资、建设、运营四季青污水处理厂、第二污水处理厂、金湖县污水处理厂、涟水县污水处理厂等四个污水处理项目，现有资产达3亿，污水处理能力实现21.5万吨/日，服务面积达到55平方公里以上。"},{"Status":"1","Type":"10","City":"淮安市","Area":"清江浦区","Name":"淮安金州水务有限公司","EPCode":"320802000005","HJ212MN":"320802000005888888889101","ADCode":"320871052000","USCCode":"9132089179909318X0","NEICode":"D4620","NEIName":"污水处理及其再生利用","Industry":"污水处理","Corporate":"徐丽","Address":"淮安经济开发区广州南路56号","Latitude":"119.108534","Longitude":"33.573346","Remark":"淮安金州水务有限公司成立于2007年3月28日。项目采用BOT模式建设运营，享有30年的特许经营权。淮安经济技术开发区污水处理厂远期规模为16万吨/日，一期建设规模为8万吨/日，分二阶段建设。处理工艺采用循环式活性污泥法（C-TECH）。"},{"Status":"0","Type":"10","City":"盐城市","Area":"盐都区","Name":"盐城建宜水务有限公司","EPCode":"320900000157","HJ212MN":"320900000157888888889101","ADCode":"320903","USCCode":"91320903757331047Y","NEICode":"D4620","NEIName":"污水处理及其再生利用","Industry":"污水处理","Corporate":"胡晓耸","Address":"盐都区美丽村","Latitude":"120.135022","Longitude":"33.350017","Remark":"盐城建宜环境水务有限公司坐落于江苏省盐城市盐都区，设计处理能力为日处理污水5万吨，平均规模为4.45万吨每天。于2003年12月26日在盐城市盐都区市场监督管理局注册成立，注册资本为4600万元人民币。"},{"Status":"0","Type":"10","City":"盐城市","Area":"经开区","Name":"盐城建工环境水务有限公司","EPCode":"320900000159","HJ212MN":"320900000159888888889101","ADCode":"320971","USCCode":"91320991761026117H","NEICode":"D4620","NEIName":"污水处理及其再生利用","Industry":"污水处理","Corporate":"胡晓耸","Address":"开发区污水厂","Latitude":"120.249654","Longitude":"33.349383","Remark":"盐城建工环境水务有限公司（盐城经济开发区污水处理厂又名盐城海源水务有限公司），坐落于江苏盐城市，设计处理能力为日处理污水2.00万立方米。自2009年8月正式投入运行以来，污水处理设备运转良好，日平均处理污水量为0.84 万立方米。该项目采用先进的污水处理设备，厂区主体工艺采用CAST处理工艺。"},{"Status":"0","Type":"10","City":"盐城市","Area":"射阳县","Name":"射阳县污水处理有限责任公司","EPCode":"320900000138","HJ212MN":"320900000138888888889101","ADCode":"320924","USCCode":"91320924768281196G","NEICode":"D4620","NEIName":"污水处理及其再生利用","Industry":"污水处理","Corporate":"倪席平","Address":"射阳县经济开发区","Latitude":"120.262180","Longitude":"33.781510","Remark":"射阳县污水处理有限责任公司，坐落于江苏盐城市，设计处理能力为日处理污水5.00万立方米。主要建设内容包括厂区土建施工，工艺设备、工艺管道安装，电气、自控系统安装，照明，防雷接地，采暖，通风，厂区道路施工及绿化等。射阳县污水处理有限责任公司自2007年1月正式投入运行以来，污水处理设备运转良好，日平均处理污水量为5.00 万立方米。"},{"Status":"0","Type":"30","City":"盐城市","Area":"滨海县","Name":"国家电投集团协鑫滨海发电有限公司","EPCode":"3209220202001829","HJ212MN":"320922020200182988889201","ADCode":"320922","USCCode":"91320922063286544L","NEICode":"D4411","NEIName":"火力发电","Industry":"","Corporate":"邢连中","Address":"盐城市滨海县滨海港区北疏港公路南侧综合楼","Latitude":"120.255260","Longitude":"34.307542","Remark":"国家电投集团协鑫滨海发电有限公司采用石灰石/石膏脱硫和SCR尿素脱硝设施，采用电除尘设备，机组采用DCS系统控制，自动化程度高。总装机容量200万千瓦，于2019年投入使用。2019年发电量达95.22亿千瓦时。"},{"Status":"0","Type":"20","City":"盐城市","Area":"大丰区","Name":"江苏大吉环保能源大丰有限公司","EPCode":"3209040200006616","HJ212MN":"320904020000661688889301","ADCode":"320904","USCCode":"91320982061875935E","NEICode":"D4417","NEIName":"生物质能发电","Industry":"电力","Corporate":"沙勇林","Address":"盐城市大丰区草庙镇川东工业集中区","Latitude":"120.732602","Longitude":"33.026124","Remark":"江苏大吉环保能源大丰有限公司经营范围包括生活垃圾焚烧发电，垃圾焚烧产生灰渣处理等，处理规模为600t/d，采用机械炉排炉，烟气净化技术采用半干式旋转喷雾反应塔+活性炭喷射+布袋除尘器的净化工艺，预留SNCR脱氮。"},{"Status":"0","Type":"10","City":"盐城市","Area":"亭湖区","Name":"盐城市城东污水处理厂","EPCode":"320900000003","HJ212MN":"320900000003888888889101","ADCode":"320902","USCCode":"913209007040966538","NEICode":"D4620","NEIName":"污水处理及其再生利用","Industry":"污水处理","Corporate":"朱怡","Address":"江苏省盐城市文港北路179号","Latitude":"120.150659","Longitude":"33.399702","Remark":""},{"Status":"1","Type":"10","City":"扬州市","Area":"邗江区","Name":"扬州市洁源排水有限公司汤汪污水处理厂","EPCode":"321000000006","HJ212MN":"321000000006888888889101","ADCode":"321001","USCCode":"91321000703902895A","NEICode":"D4620","NEIName":"污水处理及其再生利用","Industry":"污水处理","Corporate":"严俊泉","Address":"江苏扬州汤汪同心村","Latitude":"119.467703","Longitude":"32.356932","Remark":"扬州市洁源排水有限公司汤汪污水处理厂隶属于扬州市洁源排水有限公司位于江苏扬州汤汪路1号，设计处理能力为日处理污水18.00万立方米。扬州市洁源排水有限公司汤汪污水处理厂自2002年4月正式投入运行以来，污水处理设备运转良好，日平均处理污水量为17.73 万立方米。该项目采用先进的污水处理设备，厂区主体工艺采用CAST处理工艺。"},{"Status":"0","Type":"30","City":"扬州市","Area":"邗江区","Name":"扬州港口污泥发电有限公司","EPCode":"321000000035","HJ212MN":"321000000035888888889201","ADCode":"321071151000","USCCode":"91321091744802225N","NEICode":"D4411","NEIName":"火力发电","Industry":"电力","Corporate":"舒桦","Address":"扬州市开发区八里镇古渡路199号","Latitude":"119.412717","Longitude":"32.266476","Remark":"扬州港口污泥发电有限公司位于扬州经济技术开发区港口工业园。配备2台130t/h高温高压循环流化床锅炉和2台24MW抽凝式汽轮发电机组。两台机组于2004年4月份投入商业运行并正式对外供汽。年供电能力4亿千瓦时、供热能力200万GJ，最大供汽能力160T/t。"},{"Status":"1","Type":"10","City":"扬州市","Area":"江都区","Name":"江苏天雨清源污水处理有限公司","EPCode":"321000000026","HJ212MN":"321000000026888888889101","ADCode":"321012100000","USCCode":"91321012739447599K","NEICode":"D4620","NEIName":"污水处理及其再生利用","Industry":"污水处理","Corporate":"王大华","Address":"江苏扬州江都市仙女镇","Latitude":"119.591739","Longitude":"32.445311","Remark":"江苏天雨清源污水处理有限公司，位于江苏扬州江都市仙女镇，设计处理能力为日处理污水4.00万立方米。江苏天雨清源污水处理有限公司自2006年1月正式投入运行以来，污水处理设备运转良好，日平均处理污水量为3.89 万立方米。该项目采用先进的污水处理设备，厂区主体工艺采用奥贝尔氧化沟处理工艺。"},{"Status":"0","Type":"20","City":"扬州市","Area":"宝应县","Name":"光大环保能源（宝应）有限公司","EPCode":"3210230203000304","HJ212MN":"321023020300030488889301","ADCode":"321023","USCCode":"91321023MA1P820Y9J","NEICode":"D4420","NEIName":"电力供应","Industry":"电力","Corporate":"吴永新","Address":"扬州市宝应县望直港镇光大路1号","Latitude":"119.452161","Longitude":"33.264252","Remark":"光大环保能源（宝应）有限公司建设、运营生活垃圾焚烧发电（含焚烧处理城市生活垃圾销售所产生的电力及灰渣），建设热网管道并销售生活垃圾焚烧发电所产生的热力，建设及运营飞灰填埋场，运营生活垃圾填埋场，研究开发垃圾处理技术，提供相关技术咨询和技术服务。"},{"Status":"0","Type":"10","City":"扬州市","Area":"高邮市","Name":"高邮市海潮污水处理厂","EPCode":"3210840200008303","HJ212MN":"321084020000830388889101","ADCode":"321084","USCCode":"91321084757951000C","NEICode":"D462","NEIName":"污水处理及其再生利用","Industry":"","Corporate":"胡健","Address":"高邮市东外环","Latitude":"119.476908","Longitude":"32.793034","Remark":""},{"Status":"0","Type":"10","City":"扬州市","Area":"仪征市","Name":"扬州中化化雨环保有限公司","EPCode":"3210810201000353","HJ212MN":"321081020100035388889501","ADCode":"321081","USCCode":"91321081MA1Q3NHL1C","NEICode":"C15","NEIName":"酒、饮料及精制茶制造业","Industry":"","Corporate":"常凯","Address":"江苏省扬州市仪征市龙仪路与龙肖路交叉口东南150米","Latitude":"119.105169","Longitude":"32.272295","Remark":""},{"Status":"0","Type":"30","City":"镇江市","Area":"丹徒区","Name":"江苏镇江发电有限公司","EPCode":"321100500000","HJ212MN":"321100500000888888889201","ADCode":"321112","USCCode":"91321100608836068D","NEICode":"D4411","NEIName":"火力发电","Industry":"电力","Corporate":"陈为贤","Address":"江苏镇江丹徒区高资","Latitude":"119.272192","Longitude":"32.184433","Remark":"江苏镇江发电有限公司采用石灰石/石膏脱硫和SCR尿素脱硝设施，采用电除尘设备，机组采用DCS系统控制，自动化程度高。总装机容量126万千瓦。2019年发电量达69.19亿千瓦时。"},{"Status":"0","Type":"10","City":"镇江市","Area":"丹阳市","Name":"丹阳市石城污水处理有限公司","EPCode":"3211010200101506","HJ212MN":"321101020010150688889101","ADCode":"321181","USCCode":"91321181703952884C","NEICode":"D4620","NEIName":"污水处理及其再生利用","Industry":"污水处理","Corporate":"张宝春","Address":"丹阳市云阳镇","Latitude":"119.606958","Longitude":"31.973254","Remark":""},{"Status":"1","Type":"10","City":"镇江市","Area":"句容市","Name":"句容市深水水务有限公司","EPCode":"321183968750","HJ212MN":"321183968750888888889101","ADCode":"321183","USCCode":"91321183677609571X","NEICode":"D4620","NEIName":"污水处理及其再生利用","Industry":"污水处理","Corporate":"童建国","Address":"句容市开发区兆文桥西侧","Latitude":"119.144231","Longitude":"31.935512","Remark":"句容市深水水务有限公司，坐落于江苏镇江市，厂区具体位于句容市开发区兆文桥西侧，设计处理能力为日处理污水5.00万立方米。句容市深水水务有限公司自2009年5月正式投入运行以来，污水处理设备运转良好，日平均处理污水量为4.54 万立方米。该项目采用先进的污水处理设备，厂区主体工艺采用A2/O处理工艺。"},{"Status":"1","Type":"10","City":"镇江市","Area":"润州区","Name":"镇江市水业总公司征润洲污水处理厂","EPCode":"3211110200003802","HJ212MN":"321100281250888888889101","ADCode":"321111","USCCode":"913211001413801232","NEICode":"D4620","NEIName":"污水处理及其再生利用","Industry":"污水处理","Corporate":"陈恒宝","Address":"镇江市长江路2号","Latitude":"119.448091","Longitude":"32.218480","Remark":"镇江水业总公司征润州污水处理厂隶属于镇江市水业总公司，坐落于江苏镇江市，厂区具体位于镇江市长江路2号，设计处理能力为日处理污水14.50万立方米。镇江水业总公司征润州污水处理厂自2003年8月正式投入运行以来，污水处理设备运转良好，日平均处理污水量为13.91 万立方米。"},{"Status":"0","Type":"10","City":"镇江市","Area":"京口区","Name":"镇江市水业总公司新区第二污水处理厂","EPCode":"321100000756","HJ212MN":"321100000756888888889101","ADCode":"321171","USCCode":"913211001413801232","NEICode":"D4620","NEIName":"污水处理及其再生利用","Industry":"污水处理","Corporate":"陈恒宝","Address":"镇江市新区北山路","Latitude":"119.448091","Longitude":"32.218480","Remark":""},{"Status":"0","Type":"20","City":"镇江市","Area":"京口区","Name":"光大环保能源（镇江）有限公司","EPCode":"3211910200001925","HJ212MN":"321191020000192588889301","ADCode":"321171","USCCode":"91321191694475288U","NEICode":"D4417","NEIName":"生物质能发电","Industry":"电力","Corporate":"蔡曙光","Address":"镇澄路101号","Latitude":"119.604694","Longitude":"32.160854","Remark":"光大环保能源（镇江）有限公司垃圾焚烧发电项目总占地面积约120亩，日均处理生活垃圾1000吨，年处理生活垃圾36.5万吨。本项目采用机械炉排垃圾焚烧处理技术，配备3台350吨垃圾焚烧炉和2台12MW汽轮发电机组，烟气采用半干法+活性碳+布袋除尘的处理工艺，烟气排放优于国家控制标准，年发电量约1亿度。"},{"Status":"0","Type":"30","City":"泰州市","Area":"市辖区","Name":"国家能源集团泰州发电有限公司","EPCode":"3212010200005257","HJ212MN":"321201020000525788889501","ADCode":"321201","USCCode":"9132120075796619XM","NEICode":"C15","NEIName":"酒、饮料及精制茶制造业","Industry":"","Corporate":"","Address":"泰州市高港区永安洲镇福沙村","Latitude":"119.380000","Longitude":"31.550000","Remark":""},{"Status":"1","Type":"10","City":"泰州市","Area":"靖江市","Name":"靖江市华汇城市污水处理有限公司","EPCode":"321200820070","HJ212MN":"321200820070888888889101","ADCode":"321282401000","USCCode":"91321282743945080C","NEICode":"D4620","NEIName":"污水处理及其再生利用","Industry":"污水处理","Corporate":"候熀明","Address":"靖江市苏源热电路","Latitude":"120.270140","Longitude":"32.004970","Remark":"靖江市城市污水处理厂/靖江市华汇城市污水处理有限公司，坐落于江苏泰州市，厂区具体位于靖江市苏源热电路，设计处理能力为日处理污水4.00万立方米。靖江市城市污水处理厂/靖江市华汇城市污水处理有限公司自2008年7月正式投入运行以来，污水处理设备运转良好，日平均处理污水量为3.10 万立方米。该项目采用先进的污水处理设备，厂区主体工艺采用氧化沟处理工艺。"},{"Status":"1","Type":"10","City":"泰州市","Area":"泰兴市","Name":"泰兴市滨江污水处理有限公司","EPCode":"3212830200013543","HJ212MN":"321283020001354388889101","ADCode":"321283123000","USCCode":"91321283743724659R","NEICode":"D4620","NEIName":"污水处理及其再生利用","Industry":"污水处理","Corporate":"李晶明","Address":"泰兴市滨江镇工业园区","Latitude":"119.930737","Longitude":"32.122102","Remark":"泰兴市滨江污水处理总厂（一、二期），坐落于江苏泰州市，厂区具体位于江苏泰兴市滨江镇工业园区，设计处理能力为日处理污水7.00万立方米。泰兴市滨江污水处理总厂（一、二期）自2008年8月正式投入运行以来，污水处理设备运转良好，日平均处理污水量为6.23 万立方米。该项目采用先进的污水处理设备，厂区主体工艺采用改良A2/O处理工艺。"},{"Status":"0","Type":"20","City":"泰州市","Area":"泰兴市","Name":"泰兴市三峰环保能源有限公司","EPCode":"3212830200013571","HJ212MN":"321283020001357188889201","ADCode":"321283","USCCode":"913212836087857150","NEICode":"D4411","NEIName":"火力发电","Industry":"电力","Corporate":"黄龙强","Address":"泰兴市滨江工业园区","Latitude":"119.923518","Longitude":"32.133280","Remark":"泰兴市三峰环保能源有限公司是三峰环境集团控股子公司，全面负责泰兴市生活垃圾焚烧发电项目(以下简称泰兴项目)的建设、运营和管理。泰兴项目位于泰兴市经济开发区内，占地面积约100亩， 是一家热电联产 企业。公司前身为地方国营的泰兴沿江热电厂，2007年更名为泰兴卡万塔沿江热电有限公司，2016年3月 完成股权置换，成为三峰环境集团控股的垃圾发电厂。该项目一期配置1台350吨/天垃圾焚烧炉，二期配置1台450吨/天垃圾焚烧炉，均已建成投产。除焚烧发电外，还承担着经开区内80余家企业的集中供热任务。"},{"Status":"0","Type":"10","City":"泰州市","Area":"兴化市","Name":"兴化市城南污水处理厂","EPCode":"321200810082","HJ212MN":"321200810082888888889101","ADCode":"321281113000","USCCode":"91321281766513774P","NEICode":"D4620","NEIName":"污水处理及其再生利用","Industry":"污水处理","Corporate":"王斌","Address":"兴化市垛田镇张庄村","Latitude":"119.885800","Longitude":"32.926200","Remark":""},{"Status":"0","Type":"10","City":"泰州市","Area":"高港区","Name":"江苏港城污水处理有限公司","EPCode":"3212030200000918","HJ212MN":"321203020000091888889101","ADCode":"321203100000","USCCode":"91321200MA1MEWWB6R","NEICode":"N7721","NEIName":"水污染治理","Industry":"","Corporate":"薛永坚","Address":"泰州市高港区永安洲镇新街村17组","Latitude":"119.544400","Longitude":"32.125300","Remark":"江苏港城污水处理有限公司(原泰州市永安洲污水处理厂)，坐落于江苏泰州市，厂区具体位于泰州市高港区，设计处理能力为日处理污水1万吨，处理工艺采用改良型AAO工艺。江苏港城污水处理有限公司自2011年3月正式投入运行以来，污水处理设备运转良好，日平均处理污水量为0.39万吨。"},{"Status":"0","Type":"30","City":"宿迁市","Area":"宿城区","Name":"国电宿迁热电有限公司","EPCode":"321300100014","HJ212MN":"321300100014888888889201","ADCode":"321301","USCCode":"913213007527282801","NEICode":"D4411","NEIName":"火力发电","Industry":"电力","Corporate":"戚安源","Address":"宿城区洋北镇","Latitude":"118.382186","Longitude":"33.840709","Remark":"国电宿迁热电有限公司采用石灰石/石膏脱硫和SCR尿素脱硝设施，采用电除尘设备，机组采用DCS系统控制，自动化程度高。公司一期2×135MW火力发电机组于2005年投入使用，二期2×600MW机组和燃气机组于2019年投入使用。2019年发电量达55.47亿千瓦时。"},{"Status":"0","Type":"10","City":"宿迁市","Area":"沭阳县","Name":"金风环保（沭阳）有限公司","EPCode":"3213220200003783","HJ212MN":"321322020000378388889101","ADCode":"321300","USCCode":"","NEICode":"N7700","NEIName":"","Industry":"污水处理","Corporate":"sss","Address":"宿迁","Latitude":"","Longitude":"","Remark":""},{"Status":"1","Type":"10","City":"宿迁市","Area":"泗阳县","Name":"中信环境水务（泗阳）有限公司","EPCode":"3213000200000227","HJ212MN":"321300020000022788889101","ADCode":"321323","USCCode":"91321300066260235Y","NEICode":"D4620","NEIName":"污水处理及其再生利用","Industry":"污水处理","Corporate":"陈鼎东","Address":"泗阳经济开发区太湖路北首西侧外环路南侧","Latitude":"118.770039","Longitude":"33.695940","Remark":""},{"Status":"1","Type":"10","City":"宿迁市","Area":"泗洪县","Name":"泗洪水务有限责任公司","EPCode":"321300000075","HJ212MN":"321300000075888888889101","ADCode":"321324","USCCode":"91321324089357291M","NEICode":"D4620","NEIName":"污水处理及其再生利用","Industry":"污水处理","Corporate":"李成熙","Address":"泗洪县泰山2号","Latitude":"118.238699","Longitude":"33.467157","Remark":"泗洪县城北污水处理有限公司/泗洪水务有限责任公司位于江苏宿迁市，于2012年7月正式建成投入运行，泗洪县城北污水处理有限公司/泗洪水务有限责任公司采取的污水处理工艺为氧化沟，其设计规模为2.50万立方米/日，平均日处理规模达到0.79万立方米/日，执行的排放标准为《城镇污水处理厂污染物排放标准》（GB18918-2002）一级B排放标准。"},{"Status":"0","Type":"10","City":"宿迁市","Area":"宿豫区","Name":"宿迁桑德水务有限公司","EPCode":"321300000084","HJ212MN":"321300000084888888889101","ADCode":"321311","USCCode":"91321311MA1MRDD39H","NEICode":"D4620","NEIName":"污水处理及其再生利用","Industry":"污水处理","Corporate":"马伟","Address":"宿迁生态化工科技产业园燕山路1号","Latitude":"118.368006","Longitude":"34.112652","Remark":""},{"Status":"0","Type":"20","City":"宿迁市","Area":"宿城区","Name":"光大环保能源（宿迁）有限公司","EPCode":"3213010200004515","HJ212MN":"321301020000451588889301","ADCode":"321302","USCCode":"91321300551158744G","NEICode":"D4417","NEIName":"生物质能发电","Industry":"电力","Corporate":"蔡曙光","Address":"宿迁市宿城区复旦路66号","Latitude":"118.171802","Longitude":"33.933802","Remark":"光大环保能源（宿迁）有限公司日处理垃圾规模为600吨， 年处理生活垃圾30万吨，工程配置两台300吨/天的垃圾焚烧炉，一台12MW汽轮机发电机组。垃圾焚烧产生的烟气处理采用SNCR+半干法+干法脱酸+活性炭喷射+布袋除尘先进工艺，保证尾气各项污染排放指标远优于国家标准。"},{"Status":"1","Type":"30","City":"南京市","Area":"六和区","Name":"华能南京热电有限公司","EPCode":"3201950200003276","HJ212MN":"320195020000327688889201","ADCode":"320174","USCCode":"91320193088084615B","NEICode":"D4411","NEIName":"火力发电","Industry":"电力","Corporate":"曹植华","Address":"江苏省南京市六合区玉带镇通江集村","Latitude":"118.881740","Longitude":"32.203556","Remark":"华能南京热电有限公司采用石灰石/石膏脱硫和SCR尿素脱硝设施，采用电除尘设备，机组采用DCS系统控制，自动化程度高。公司安装2台32万干瓦全套引进俄罗斯燃煤超临界机组，累计完成发电量541.72亿千瓦时，累计上交国家税金13.16亿元。2019年发电量达27.62亿千瓦时。"},{"Status":"0","Type":"20","City":"南京市","Area":"高淳区","Name":"光大再生能源（南京）有限公司","EPCode":"3201180200002646","HJ212MN":"320118020000264688889301","ADCode":"320118","USCCode":"913201183364036637","NEICode":"D4417","NEIName":"生物质能发电","Industry":"电力","Corporate":"蔡曙光","Address":"江苏省南京市高淳区东坝镇新源路1号","Latitude":"119.071052","Longitude":"31.305594","Remark":"经营范围包括垃圾处理厂的建设、经营；资源化处理城乡生活垃圾、秸秆、固体废弃物，生产合成气及发电；研究开发垃圾处理技术；固体废弃物填埋场的运营管理，处理工艺为SNCR+焚烧炉+半干脱酸+消石灰+活性炭+布袋除尘。"},{"Status":"0","Type":"10","City":"南京市","Area":"鼓楼区","Name":"南京金州城北污水处理有限公司","EPCode":"320100000136","HJ212MN":"320100000136888888889101","ADCode":"320106","USCCode":"91320100667374553N","NEICode":"D4620","NEIName":"污水处理及其再生利用","Industry":"污水处理","Corporate":"朱瑞亭","Address":"南京鼓楼区宝塔桥西街1号","Latitude":"118.743161","Longitude":"32.107364","Remark":""},{"Status":"1","Type":"10","City":"南京市","Area":"浦口区","Name":"光大水务（南京）有限公司","EPCode":"320100000188","HJ212MN":"320100000188888888889101","ADCode":"320111","USCCode":"91320100780673715Q","NEICode":"D4620","NEIName":"污水处理及其再生利用","Industry":"污水处理","Corporate":"杜德荣","Address":"江苏省南京市浦口区江浦街道","Latitude":"118.636373","Longitude":"32.019505","Remark":"南京市浦口区珠江污水处理厂于2016年建设，江苏南京市浦口区珠江污水处理厂采用较为先进的污水处理工艺反硝化生物滤池→臭氧接触池→机械絮凝池→活性砂滤池，其设计规模为2万立方米/日，先期日处理规模达到2万立方米/日。项目工艺：进水→提升泵房→反硝化生物滤池（轻质滤料、投加碳源）→臭氧接触池→机械絮凝池（远期预留）→活性砂滤池（远期预留）→调节池（次氯酸钠消毒）→出水泵房→用户。"},{"Status":"0","Type":"10","City":"南京市","Area":"栖霞区","Name":"南京金陵环境有限公司城北污水处理厂","EPCode":"3201000200013733","HJ212MN":"320100020001373388889101","ADCode":"320100","USCCode":"91320100726052299K","NEICode":"","NEIName":"","Industry":"","Corporate":"张斌","Address":"南京市新港开发区恒通大道2-1号","Latitude":"118.858544","Longitude":"32.150881","Remark":""},{"Status":"0","Type":"10","City":"南京市","Area":"雨花台区","Name":"南京城南污水处理有限公司","EPCode":"3201140200802119","HJ212MN":"320114020080211988889101","ADCode":"320114000000","USCCode":"91320114MA200RH884","NEICode":"D462","NEIName":"污水处理及其再生利用","Industry":"","Corporate":"戴明","Address":"南京市雨花台区龙腾南路15号","Latitude":"118.621790","Longitude":"31.930540","Remark":""},{"Status":"0","Type":"10","City":"连云港","Area":"连云区","Name":"连云港东港污水处理厂","EPCode":"320700000152881","HJ212MN":"320700000152881888889101","ADCode":"","USCCode":"","NEICode":"","NEIName":"","Industry":"","Corporate":"","Address":"","Latitude":"","Longitude":"","Remark":""},{"Status":"0","Type":"10","City":"连云港","Area":"赣榆区","Name":"连云港赣榆云通水务有限公司","EPCode":"3207070201000200","HJ212MN":"790876671888888888889101","ADCode":"","USCCode":"","NEICode":"","NEIName":"","Industry":"","Corporate":"","Address":"","Latitude":"119.302979","Longitude":"35.095055","Remark":"赣榆县云通水务有限公司，坐落于江苏连云港市，厂区具体位于赣榆县柘汪镇响石村东侧，设计处理能力为日处理污水2.00万立方米。赣榆县云通水务有限公司自2012年6月正式投入运行以来，污水处理设备运转良好，日平均处理污水量为0.20 万立方米。该项目采用先进的污水处理设备，厂区主体工艺采用A2/O处理工艺。"},{"Status":"0","Type":"10","City":"连云港","Area":"海州区","Name":"连云港光大水务有限公司","EPCode":"3207060200115235","HJ212MN":"320700400004522888889191","ADCode":"","USCCode":"","NEICode":"","NEIName":"","Industry":"","Corporate":"","Address":"","Latitude":"119.183454","Longitude":"34.652341","Remark":"光大水务（连云港）有限公司成立于2005年06月21日，注册地位于连云港市海州区北郊路65-1号。光大水务（连云港）有限公司是中国光大水务有限公司全资子公司，是连云港市目前规模最大的城镇污水处理企业，公司下辖两个厂：大浦污水处理厂和墟沟污水处理厂。两厂现已建成投运的规模分别为10万吨/日及4万吨/日，均采用A2/O处理工艺，出水一级A排放标准执行。"},{"Status":"0","Type":"30","City":"连云港","Area":"海州区","Name":"江苏新海发电有限公司","EPCode":"320700000088","HJ212MN":"320700000212685888889201","ADCode":"","USCCode":"","NEICode":"","NEIName":"","Industry":"","Corporate":"","Address":"","Latitude":"119.125129","Longitude":"34.574359","Remark":"江苏新海发电有限公司坐落于连云港市古城海州，是一家在现代企业制度规范下的国有大型火力发电企业。企业装机容量115万千瓦，年发电能力可达66亿千瓦时，供热66万吨。"},{"Status":"1","Type":"20","City":"连云港","Area":"灌云县","Name":"光大城乡再生能源（灌云）有限公司","EPCode":"3207230200001590","HJ212MN":"320700400017551888889301","ADCode":"","USCCode":"913207003105549149","NEICode":"","NEIName":"","Industry":"","Corporate":"孙先栋","Address":"连云港市灌云县经济开发区浙江中路南侧","Latitude":"119.260665","Longitude":"34.261905","Remark":"光大城乡再生能源（灌云）有限公司由中国光大国际有限公司投资建设，投资总额约6亿元人民币，项目占地面积200亩，主要从事生物质与生活垃圾热电联产，配置规模为：2台75t/h高温、高压水冷炉排锅炉+2台18MW可调节抽凝式汽轮发电机组（生物质热电联产）+1×500t/d焚烧线+1×3MW背压式汽轮发电机组（垃圾焚烧热电联产），发电量约2.6亿KWh，节约标煤9.5万吨，并减排CO2达22万吨。"},{"Status":"0","Type":"10","City":"连云港","Area":"东海县","Name":"连云港西湖污水处理有限公司","EPCode":"320700000046","HJ212MN":"320722000022403888889101","ADCode":"","USCCode":"","NEICode":"","NEIName":"","Industry":"","Corporate":"","Address":"","Latitude":"118.7223","Longitude":"34.514679","Remark":"东海县西湖污水处理厂，坐落于江苏连云港市，设计处理能力为日处理污水2.00万立方米。东海县西湖污水处理厂自2006年12月正式投入运行以来，污水处理设备运转良好，日平均处理污水量为2.00 万立方米。该项目采用先进的污水处理设备，厂区主体工艺采用A2/O处理工艺。"}]